{
    "data": [
        {
            "latitude": 21.24891,
            "longitude": 106.00111,
            "type": "locality",
            "name": "Xã Dũng Liệt",
            "number": null,
            "postal_code": null,
            "street": null,
            "confidence": 1,
            "region": "Bac Ninh",
            "region_code": "BN",
            "county": "Yen Phong",
            "locality": "Xã Dũng Liệt",
            "administrative_area": null,
            "neighbourhood": null,
            "country": "Vietnam",
            "country_code": "VNM",
            "continent": "Asia",
            "label": "Xã Dũng Liệt, BN, Vietnam"
        },
        {
            "latitude": 21.37845,
            "longitude": 103.31061,
            "type": "locality",
            "name": "Xã Xa Dung",
            "number": null,
            "postal_code": null,
            "street": null,
            "confidence": 1,
            "region": "Dien Bien",
            "region_code": "DB",
            "county": "Dien Bien Dong",
            "locality": "Xã Xa Dung",
            "administrative_area": null,
            "neighbourhood": null,
            "country": "Vietnam",
            "country_code": "VNM",
            "continent": "Asia",
            "label": "Xã Xa Dung, DB, Vietnam"
        },
        {
            "latitude": 21.18527,
            "longitude": 106.17245,
            "type": "locality",
            "name": "Thach Xa",
            "number": null,
            "postal_code": null,
            "street": null,
            "confidence": 1,
            "region": "Bac Giang",
            "region_code": "BG",
            "county": "Yen Dung",
            "locality": "Thach Xa",
            "administrative_area": null,
            "neighbourhood": null,
            "country": "Vietnam",
            "country_code": "VNM",
            "continent": "Asia",
            "label": "Thach Xa, BG, Vietnam"
        },
        {
            "latitude": 21.18321,
            "longitude": 106.17984,
            "type": "locality",
            "name": "Thinh Xa",
            "number": null,
            "postal_code": null,
            "street": null,
            "confidence": 1,
            "region": "Bac Giang",
            "region_code": "BG",
            "county": "Yen Dung",
            "locality": "Thinh Xa",
            "administrative_area": null,
            "neighbourhood": null,
            "country": "Vietnam",
            "country_code": "VNM",
            "continent": "Asia",
            "label": "Thinh Xa, BG, Vietnam"
        },
        {
            "latitude": 21.22741,
            "longitude": 106.2286,
            "type": "locality",
            "name": "Xã Tân Liễu",
            "number": null,
            "postal_code": null,
            "street": null,
            "confidence": 1,
            "region": "Bac Giang",
            "region_code": "BG",
            "county": "Yen Dung",
            "locality": "Xã Tân Liễu",
            "administrative_area": null,
            "neighbourhood": null,
            "country": "Vietnam",
            "country_code": "VNM",
            "continent": "Asia",
            "label": "Xã Tân Liễu, BG, Vietnam"
        },
        {
            "latitude": 21.22156,
            "longitude": 106.28541,
            "type": "locality",
            "name": "Xã Lãng Sơn",
            "number": null,
            "postal_code": null,
            "street": null,
            "confidence": 1,
            "region": "Bac Giang",
            "region_code": "BG",
            "county": "Yen Dung",
            "locality": "Xã Lãng Sơn",
            "administrative_area": null,
            "neighbourhood": null,
            "country": "Vietnam",
            "country_code": "VNM",
            "continent": "Asia",
            "label": "Xã Lãng Sơn, BG, Vietnam"
        },
        {
            "latitude": 21.20331,
            "longitude": 106.27784,
            "type": "locality",
            "name": "Xã Tiến Dũng",
            "number": null,
            "postal_code": null,
            "street": null,
            "confidence": 1,
            "region": "Bac Giang",
            "region_code": "BG",
            "county": "Yen Dung",
            "locality": "Xã Tiến Dũng",
            "administrative_area": null,
            "neighbourhood": null,
            "country": "Vietnam",
            "country_code": "VNM",
            "continent": "Asia",
            "label": "Xã Tiến Dũng, BG, Vietnam"
        },
        {
            "latitude": 21.1768,
            "longitude": 106.25683,
            "type": "locality",
            "name": "Xã Tư Mại",
            "number": null,
            "postal_code": null,
            "street": null,
            "confidence": 1,
            "region": "Bac Giang",
            "region_code": "BG",
            "county": "Yen Dung",
            "locality": "Xã Tư Mại",
            "administrative_area": null,
            "neighbourhood": null,
            "country": "Vietnam",
            "country_code": "VNM",
            "continent": "Asia",
            "label": "Xã Tư Mại, BG, Vietnam"
        },
        {
            "latitude": 21.23843,
            "longitude": 106.26372,
            "type": "locality",
            "name": "Xã Xuân Phú",
            "number": null,
            "postal_code": null,
            "street": null,
            "confidence": 1,
            "region": "Bac Giang",
            "region_code": "BG",
            "county": "Yen Dung",
            "locality": "Xã Xuân Phú",
            "administrative_area": null,
            "neighbourhood": null,
            "country": "Vietnam",
            "country_code": "VNM",
            "continent": "Asia",
            "label": "Xã Xuân Phú, BG, Vietnam"
        },
        {
            "latitude": 21.16647,
            "longitude": 106.22826,
            "type": "locality",
            "name": "Xã Thắng Cương",
            "number": null,
            "postal_code": null,
            "street": null,
            "confidence": 1,
            "region": "Bac Giang",
            "region_code": "BG",
            "county": "Yen Dung",
            "locality": "Xã Thắng Cương",
            "administrative_area": null,
            "neighbourhood": null,
            "country": "Vietnam",
            "country_code": "VNM",
            "continent": "Asia",
            "label": "Xã Thắng Cương, BG, Vietnam"
        }
    ]
}